[
    {
        "id": "110101",
        "city_id": "1101",
        "name": "BAKONGAN",
        "meta": {
            "lat": 3.11223,
            "long": 97.41593
        },
        "created_at": "2022-06-11 17:48:23",
        "updated_at": "2022-06-11 17:48:23"
    },
    {
        "id": "110102",
        "city_id": "1101",
        "name": "KLUET UTARA",
        "meta": {
            "lat": 3.25954,
            "long": 97.29331
        },
        "created_at": "2022-06-11 17:48:23",
        "updated_at": "2022-06-11 17:48:23"
    },
    {
        "id": "110103",
        "city_id": "1101",
        "name": "KLUET SELATAN",
        "meta": {
            "lat": 3.08237,
            "long": 97.33933
        },
        "created_at": "2022-06-11 17:48:23",
        "updated_at": "2022-06-11 17:48:23"
    },
    {
        "id": "110104",
        "city_id": "1101",
        "name": "SAMADUA",
        "meta": {
            "lat": 3.16447,
            "long": 97.31578
        },
        "created_at": "2022-06-11 17:48:23",
        "updated_at": "2022-06-11 17:48:23"
    },
    {
        "id": "110105",
        "city_id": "1101",
        "name": "TAPAKTUAN",
        "meta": {
            "lat": 3.2437,
            "long": 97.19149
        },
        "created_at": "2022-06-11 17:48:23",
        "updated_at": "2022-06-11 17:48:23"
    },
    {
        "id": "110106",
        "city_id": "1101",
        "name": "MEUKEK",
        "meta": {
            "lat": 3.38011,
            "long": 97.21734
        },
        "created_at": "2022-06-11 17:48:23",
        "updated_at": "2022-06-11 17:48:23"
    },
    {
        "id": "110107",
        "city_id": "1101",
        "name": "SAWANG",
        "meta": {
            "lat": 3.46978,
            "long": 97.22016
        },
        "created_at": "2022-06-11 17:48:23",
        "updated_at": "2022-06-11 17:48:23"
    },
    {
        "id": "110108",
        "city_id": "1101",
        "name": "LABUHAN HAJI",
        "meta": {
            "lat": 3.5545,
            "long": 97.19601
        },
        "created_at": "2022-06-11 17:48:23",
        "updated_at": "2022-06-11 17:48:23"
    },
    {
        "id": "110109",
        "city_id": "1101",
        "name": "LABUHAN HAJI TIMUR",
        "meta": {
            "lat": 3.58463,
            "long": 97.31178
        },
        "created_at": "2022-06-11 17:48:23",
        "updated_at": "2022-06-11 17:48:23"
    },
    {
        "id": "110110",
        "city_id": "1101",
        "name": "LABUHAN HAJI BARAT",
        "meta": {
            "lat": 3.51277,
            "long": 97.21843
        },
        "created_at": "2022-06-11 17:48:23",
        "updated_at": "2022-06-11 17:48:23"
    },
    {
        "id": "110111",
        "city_id": "1101",
        "name": "KLUET TENGAH",
        "meta": {
            "lat": 3.25954,
            "long": 97.29331
        },
        "created_at": "2022-06-11 17:48:23",
        "updated_at": "2022-06-11 17:48:23"
    },
    {
        "id": "110112",
        "city_id": "1101",
        "name": "KLUET TIMUR",
        "meta": {
            "lat": 3.08237,
            "long": 97.33933
        },
        "created_at": "2022-06-11 17:48:23",
        "updated_at": "2022-06-11 17:48:23"
    },
    {
        "id": "110113",
        "city_id": "1101",
        "name": "BAKONGAN TIMUR",
        "meta": {
            "lat": 3.11223,
            "long": 97.41593
        },
        "created_at": "2022-06-11 17:48:23",
        "updated_at": "2022-06-11 17:48:23"
    },
    {
        "id": "110114",
        "city_id": "1101",
        "name": "TRUMON",
        "meta": {
            "lat": 2.91695,
            "long": 97.32861
        },
        "created_at": "2022-06-11 17:48:23",
        "updated_at": "2022-06-11 17:48:23"
    },
    {
        "id": "110115",
        "city_id": "1101",
        "name": "TRUMON TIMUR",
        "meta": {
            "lat": 2.91695,
            "long": 97.32861
        },
        "created_at": "2022-06-11 17:48:23",
        "updated_at": "2022-06-11 17:48:23"
    },
    {
        "id": "110116",
        "city_id": "1101",
        "name": "TRUMON TENGAH",
        "meta": {
            "lat": 2.91695,
            "long": 97.32861
        },
        "created_at": "2022-06-11 17:48:23",
        "updated_at": "2022-06-11 17:48:23"
    },
    {
        "id": "110117",
        "city_id": "1101",
        "name": "PASI RAJA",
        "meta": {
            "lat": 3.2437,
            "long": 97.19149
        },
        "created_at": "2022-06-11 17:48:23",
        "updated_at": "2022-06-11 17:48:23"
    },
    {
        "id": "110118",
        "city_id": "1101",
        "name": "KOTA BAHAGIA",
        "meta": {
            "lat": 3.16447,
            "long": 97.31578
        },
        "created_at": "2022-06-11 17:48:23",
        "updated_at": "2022-06-11 17:48:23"
    },
    {
        "id": "317101",
        "city_id": "3171",
        "name": "TANAH ABANG",
        "meta": {
            "lat": -6.18551,
            "long": 106.81722
        },
        "created_at": "2022-06-11 17:48:23",
        "updated_at": "2022-06-11 17:48:23"
    },
    {
        "id": "317102",
        "city_id": "3171",
        "name": "MENTENG",
        "meta": {
            "lat": -6.19646,
            "long": 106.83613
        },
        "created_at": "2022-06-11 17:48:23",
        "updated_at": "2022-06-11 17:48:23"
    },
    {
        "id": "317103",
        "city_id": "3171",
        "name": "SENEN",
        "meta": {
            "lat": -6.17802,
            "long": 106.84217
        },
        "created_at": "2022-06-11 17:48:23",
        "updated_at": "2022-06-11 17:48:23"
    },
    {
        "id": "317104",
        "city_id": "3171",
        "name": "JOHAR BARU",
        "meta": {
            "lat": -6.17802,
            "long": 106.86587
        },
        "created_at": "2022-06-11 17:48:23",
        "updated_at": "2022-06-11 17:48:23"
    },
    {
        "id": "317105",
        "city_id": "3171",
        "name": "CEMPAKA PUTIH",
        "meta": {
            "lat": -6.16617,
            "long": 106.87133
        },
        "created_at": "2022-06-11 17:48:23",
        "updated_at": "2022-06-11 17:48:23"
    },
    {
        "id": "317106",
        "city_id": "3171",
        "name": "KEMAYORAN",
        "meta": {
            "lat": -6.15697,
            "long": 106.84906
        },
        "created_at": "2022-06-11 17:48:23",
        "updated_at": "2022-06-11 17:48:23"
    },
    {
        "id": "317107",
        "city_id": "3171",
        "name": "SAWAH BESAR",
        "meta": {
            "lat": -6.15697,
            "long": 106.82536
        },
        "created_at": "2022-06-11 17:48:23",
        "updated_at": "2022-06-11 17:48:23"
    },
    {
        "id": "317108",
        "city_id": "3171",
        "name": "GAMBIR",
        "meta": {
            "lat": -6.16841,
            "long": 106.82234
        },
        "created_at": "2022-06-11 17:48:23",
        "updated_at": "2022-06-11 17:48:23"
    },
    {
        "id": "317201",
        "city_id": "3172",
        "name": "PENJARINGAN",
        "meta": {
            "lat": -6.12844,
            "long": 106.78804
        },
        "created_at": "2022-06-11 17:48:23",
        "updated_at": "2022-06-11 17:48:23"
    },
    {
        "id": "317202",
        "city_id": "3172",
        "name": "PADEMANGAN",
        "meta": {
            "lat": -6.13455,
            "long": 106.84333
        },
        "created_at": "2022-06-11 17:48:23",
        "updated_at": "2022-06-11 17:48:23"
    },
    {
        "id": "317203",
        "city_id": "3172",
        "name": "TANJUNG PRIOK",
        "meta": {
            "lat": -6.11197,
            "long": 106.86644
        },
        "created_at": "2022-06-11 17:48:23",
        "updated_at": "2022-06-11 17:48:23"
    },
    {
        "id": "317204",
        "city_id": "3172",
        "name": "KOJA",
        "meta": {
            "lat": -6.09308,
            "long": 106.91243
        },
        "created_at": "2022-06-11 17:48:23",
        "updated_at": "2022-06-11 17:48:23"
    },
    {
        "id": "317205",
        "city_id": "3172",
        "name": "KELAPA GADING",
        "meta": {
            "lat": -6.15911,
            "long": 106.90594
        },
        "created_at": "2022-06-11 17:48:23",
        "updated_at": "2022-06-11 17:48:23"
    },
    {
        "id": "317206",
        "city_id": "3172",
        "name": "CILINCING",
        "meta": {
            "lat": -6.12263,
            "long": 106.94837
        },
        "created_at": "2022-06-11 17:48:23",
        "updated_at": "2022-06-11 17:48:23"
    },
    {
        "id": "317301",
        "city_id": "3173",
        "name": "CENGKARENG",
        "meta": {
            "lat": -6.14351,
            "long": 106.73889
        },
        "created_at": "2022-06-11 17:48:23",
        "updated_at": "2022-06-11 17:48:23"
    },
    {
        "id": "317302",
        "city_id": "3173",
        "name": "GROGOL PETAMBURAN",
        "meta": {
            "lat": -6.16617,
            "long": 106.78954
        },
        "created_at": "2022-06-11 17:48:23",
        "updated_at": "2022-06-11 17:48:23"
    },
    {
        "id": "317303",
        "city_id": "3173",
        "name": "TAMAN SARI",
        "meta": {
            "lat": -6.15373,
            "long": 106.81117
        },
        "created_at": "2022-06-11 17:48:23",
        "updated_at": "2022-06-11 17:48:23"
    },
    {
        "id": "317304",
        "city_id": "3173",
        "name": "TAMBORA",
        "meta": {
            "lat": -6.14647,
            "long": 106.79819
        },
        "created_at": "2022-06-11 17:48:23",
        "updated_at": "2022-06-11 17:48:23"
    },
    {
        "id": "317305",
        "city_id": "3173",
        "name": "KEBON JERUK",
        "meta": {
            "lat": -6.19001,
            "long": 106.76962
        },
        "created_at": "2022-06-11 17:48:23",
        "updated_at": "2022-06-11 17:48:23"
    },
    {
        "id": "317306",
        "city_id": "3173",
        "name": "KALIDERES",
        "meta": {
            "lat": -6.14562,
            "long": 106.70294
        },
        "created_at": "2022-06-11 17:48:23",
        "updated_at": "2022-06-11 17:48:23"
    },
    {
        "id": "317307",
        "city_id": "3173",
        "name": "PALMERAH",
        "meta": {
            "lat": -6.20096,
            "long": 106.79668
        },
        "created_at": "2022-06-11 17:48:23",
        "updated_at": "2022-06-11 17:48:23"
    },
    {
        "id": "317308",
        "city_id": "3173",
        "name": "KEMBANGAN",
        "meta": {
            "lat": -6.18266,
            "long": 106.73409
        },
        "created_at": "2022-06-11 17:48:23",
        "updated_at": "2022-06-11 17:48:23"
    },
    {
        "id": "317401",
        "city_id": "3174",
        "name": "TEBET",
        "meta": {
            "lat": -6.22661,
            "long": 106.85829
        },
        "created_at": "2022-06-11 17:48:23",
        "updated_at": "2022-06-11 17:48:23"
    },
    {
        "id": "317402",
        "city_id": "3174",
        "name": "SETIABUDI",
        "meta": {
            "lat": -6.22083,
            "long": 106.83158
        },
        "created_at": "2022-06-11 17:48:23",
        "updated_at": "2022-06-11 17:48:23"
    },
    {
        "id": "317403",
        "city_id": "3174",
        "name": "MAMPANG PRAPATAN",
        "meta": {
            "lat": -6.24041,
            "long": 106.82386
        },
        "created_at": "2022-06-11 17:48:23",
        "updated_at": "2022-06-11 17:48:23"
    },
    {
        "id": "317404",
        "city_id": "3174",
        "name": "PASAR MINGGU",
        "meta": {
            "lat": -6.28523,
            "long": 106.84346
        },
        "created_at": "2022-06-11 17:48:23",
        "updated_at": "2022-06-11 17:48:23"
    },
    {
        "id": "317405",
        "city_id": "3174",
        "name": "KEBAYORAN LAMA",
        "meta": {
            "lat": -6.25503,
            "long": 106.78234
        },
        "created_at": "2022-06-11 17:48:23",
        "updated_at": "2022-06-11 17:48:23"
    },
    {
        "id": "317406",
        "city_id": "3174",
        "name": "CILANDAK",
        "meta": {
            "lat": -6.29917,
            "long": 106.80461
        },
        "created_at": "2022-06-11 17:48:23",
        "updated_at": "2022-06-11 17:48:23"
    },
    {
        "id": "317407",
        "city_id": "3174",
        "name": "KEBAYORAN BARU",
        "meta": {
            "lat": -6.24539,
            "long": 106.79985
        },
        "created_at": "2022-06-11 17:48:23",
        "updated_at": "2022-06-11 17:48:23"
    },
    {
        "id": "317408",
        "city_id": "3174",
        "name": "PANCORAN",
        "meta": {
            "lat": -6.23858,
            "long": 106.84053
        },
        "created_at": "2022-06-11 17:48:23",
        "updated_at": "2022-06-11 17:48:23"
    },
    {
        "id": "317409",
        "city_id": "3174",
        "name": "JAGAKARSA",
        "meta": {
            "lat": -6.33416,
            "long": 106.82183
        },
        "created_at": "2022-06-11 17:48:23",
        "updated_at": "2022-06-11 17:48:23"
    },
    {
        "id": "317410",
        "city_id": "3174",
        "name": "PESANGGRAHAN",
        "meta": {
            "lat": -6.26059,
            "long": 106.76444
        },
        "created_at": "2022-06-11 17:48:23",
        "updated_at": "2022-06-11 17:48:23"
    },
    {
        "id": "317501",
        "city_id": "3175",
        "name": "MATRAMAN",
        "meta": {
            "lat": -6.19704,
            "long": 106.86172
        },
        "created_at": "2022-06-11 17:48:23",
        "updated_at": "2022-06-11 17:48:23"
    },
    {
        "id": "317502",
        "city_id": "3175",
        "name": "PULOGADUNG",
        "meta": {
            "lat": -6.18366,
            "long": 106.90037
        },
        "created_at": "2022-06-11 17:48:23",
        "updated_at": "2022-06-11 17:48:23"
    },
    {
        "id": "317503",
        "city_id": "3175",
        "name": "JATINEGARA",
        "meta": {
            "lat": -6.21469,
            "long": 106.88286
        },
        "created_at": "2022-06-11 17:48:23",
        "updated_at": "2022-06-11 17:48:23"
    },
    {
        "id": "317504",
        "city_id": "3175",
        "name": "KRAMAT JATI",
        "meta": {
            "lat": -6.26554,
            "long": 106.87579
        },
        "created_at": "2022-06-11 17:48:23",
        "updated_at": "2022-06-11 17:48:23"
    },
    {
        "id": "317505",
        "city_id": "3175",
        "name": "PASAR REBO",
        "meta": {
            "lat": -6.32628,
            "long": 106.86644
        },
        "created_at": "2022-06-11 17:48:23",
        "updated_at": "2022-06-11 17:48:23"
    },
    {
        "id": "317506",
        "city_id": "3175",
        "name": "CAKUNG",
        "meta": {
            "lat": -6.17192,
            "long": 106.94535
        },
        "created_at": "2022-06-11 17:48:23",
        "updated_at": "2022-06-11 17:48:23"
    },
    {
        "id": "317507",
        "city_id": "3175",
        "name": "DUREN SAWIT",
        "meta": {
            "lat": -6.22688,
            "long": 106.91546
        },
        "created_at": "2022-06-11 17:48:23",
        "updated_at": "2022-06-11 17:48:23"
    },
    {
        "id": "317508",
        "city_id": "3175",
        "name": "MAKASAR",
        "meta": {
            "lat": -6.29461,
            "long": 106.9075
        },
        "created_at": "2022-06-11 17:48:23",
        "updated_at": "2022-06-11 17:48:23"
    },
    {
        "id": "317509",
        "city_id": "3175",
        "name": "CIRACAS",
        "meta": {
            "lat": -6.34722,
            "long": 106.8737
        },
        "created_at": "2022-06-11 17:48:23",
        "updated_at": "2022-06-11 17:48:23"
    },
    {
        "id": "317510",
        "city_id": "3175",
        "name": "CIPAYUNG",
        "meta": {
            "lat": -6.36587,
            "long": 106.90445
        },
        "created_at": "2022-06-11 17:48:23",
        "updated_at": "2022-06-11 17:48:23"
    }
]
